{"type":"FeatureCollection","features":[{"type":"Feature","id":0,"geometry":{"type":"Point","coordinates":[-82.718529779568186,28.255941044487148]},"properties":{"FID":0,"NAME":"NEW PORT RICHEY POLICE STATION","ADDRESS":"6739 ADAMS ST","CITY_STATE":"NEW PORT RICHEY, FL 34652","PHONE":"727-841-4553","TYPE":"Police Department","VPARCEL":"08 26 16 0120 00100 0010","DATE_STAMP":1146182400000,"EASID":0,"created_us":"GISADMIN","created_da":1524009600000,"last_edite":"GISADMIN","last_edi_1":1524009600000}},{"type":"Feature","id":1,"geometry":{"type":"Point","coordinates":[-82.709143523204659,28.282955990050009]},"properties":{"FID":1,"NAME":"PORT RICHEY POLICE DEPARTMENT/FIRE DEPARTMENT","ADDRESS":"6333 RIDGE RD","CITY_STATE":"PORT RICHEY, FL 34668","PHONE":"727-848-2398","TYPE":"Police Department","VPARCEL":"28 25 16 0010 02700 0000","DATE_STAMP":1146182400000,"EASID":0,"created_us":"GISADMIN","created_da":1524009600000,"last_edite":"GISADMIN","last_edi_1":1524009600000}},{"type":"Feature","id":2,"geometry":{"type":"Point","coordinates":[-82.669949713772269,28.267065045053492]},"properties":{"FID":2,"NAME":"PASCO COUNTY SHERIFFS OFFICE/ADMINISTRATION","ADDRESS":"8700 CITIZEN DR","CITY_STATE":"NEW PORT RICHEY, FL 34654","PHONE":"727-844-7799","TYPE":"Sheriffs Department","VPARCEL":"35 25 16 0030 00390 0002","DATE_STAMP":1146182400000,"EASID":0,"created_us":"GISADMIN","created_da":1524009600000,"last_edite":"GISADMIN","last_edi_1":1524009600000}},{"type":"Feature","id":3,"geometry":{"type":"Point","coordinates":[-82.199075204545096,28.361387503041495]},"properties":{"FID":3,"NAME":"PASCO COUNTY SHERIFFS OFFICE","ADDRESS":"37312 HOWARD AVE","CITY_STATE":"DADE CITY, FL 33525","PHONE":"352-000-0000","TYPE":"Sheriffs Department","VPARCEL":"34 24 21 0010 00400 0010","DATE_STAMP":1146182400000,"EASID":0,"created_us":"GISADMIN","created_da":1524009600000,"last_edite":"GISADMIN","last_edi_1":1524009600000}},{"type":"Feature","id":4,"geometry":{"type":"Point","coordinates":[-82.673898589938972,28.266224808958182]},"properties":{"FID":4,"NAME":"PASCO COUNTY SHERIFFS OFFICE WEST OPERATIONS","ADDRESS":"7432 LITTLE RD","CITY_STATE":"NEW PORT RICHEY, FL 34654","PHONE":"727-","TYPE":"Sheriffs Department","VPARCEL":"35 25 16 0030 00390 0002","DATE_STAMP":1146182400000,"EASID":0,"created_us":"GISADMIN","created_da":1524009600000,"last_edite":"GISADMIN","last_edi_1":1524009600000}},{"type":"Feature","id":5,"geometry":{"type":"Point","coordinates":[-82.464458776318509,28.191290798858482]},"properties":{"FID":5,"NAME":"PASCO COUNTY COMMUNITY OFFICE","ADDRESS":"21300 STATE ROAD 54","CITY_STATE":"LAND O' LAKES, FL 34639","PHONE":"813-000-0000","TYPE":"Sheriffs Department","VPARCEL":"25 26 18 0000 06100 0000","DATE_STAMP":1146182400000,"EASID":0,"created_us":"GISADMIN","created_da":1524009600000,"last_edite":"GISADMIN","last_edi_1":1524009600000}},{"type":"Feature","id":6,"geometry":{"type":"Point","coordinates":[-82.18659061266392,28.363686299231659]},"properties":{"FID":6,"NAME":"DADE CITY POLICE DEPARTMENT","ADDRESS":"38024 PASCO AVE","CITY_STATE":"DADE CITY, FL 33525","PHONE":"352-521-1495","TYPE":"Police Department","VPARCEL":"26 24 21 0050 00740 0001","DATE_STAMP":1146182400000,"EASID":0,"created_us":"GISADMIN","created_da":1524009600000,"last_edite":"GISADMIN","last_edi_1":1524009600000}},{"type":"Feature","id":7,"geometry":{"type":"Point","coordinates":[-82.1861628496262,28.363229624494849]},"properties":{"FID":7,"NAME":"DADE CITY POLICE DEPARTMENT/CIRCUIT","ADDRESS":"PASCO AVE, BOX 1355","CITY_STATE":"DADE CITY, FL 33525","PHONE":"352-521-1495","TYPE":"Police Department","VPARCEL":"26 24 21 0050 00740 0001","DATE_STAMP":1146182400000,"EASID":0,"created_us":"GISADMIN","created_da":1524009600000,"last_edite":"GISADMIN","last_edi_1":1524009600000}},{"type":"Feature","id":8,"geometry":{"type":"Point","coordinates":[-82.178616497198178,28.234491394783063]},"properties":{"FID":8,"NAME":"ZEPHYRHILLS POLICE DEPARTMENT","ADDRESS":"5344 9TH ST","CITY_STATE":"ZEPHYRHILLS, FL 33540","PHONE":"813-782-1551","TYPE":"Police Department","VPARCEL":"11 26 21 0010 15100 0160","DATE_STAMP":1146182400000,"EASID":0,"created_us":"GISADMIN","created_da":1524009600000,"last_edite":"GISADMIN","last_edi_1":1524009600000}},{"type":"Feature","id":9,"geometry":{"type":"Point","coordinates":[-82.483029521381084,28.307386407334427]},"properties":{"FID":9,"NAME":"PASCO COUNTY SHERIFFS OFFICE/ADMINISTRATION/JAIL","ADDRESS":"20101 CENTRAL BLVD","CITY_STATE":"LAND O' LAKES, FL","PHONE":"727-","TYPE":"Correctional Facility","VPARCEL":"14 25 18 0000 00200 0000","DATE_STAMP":1146182400000,"EASID":0,"created_us":"GISADMIN","created_da":1524009600000,"last_edite":"GISADMIN","last_edi_1":1524009600000}},{"type":"Feature","id":10,"geometry":{"type":"Point","coordinates":[-82.213565378005697,28.34869046923464]},"properties":{"FID":10,"NAME":"PASCO COUNTY COMMUNITY OFFICE","ADDRESS":"36409 STATE ROAD 52","CITY_STATE":"DADE CITY, FL 33525","PHONE":" ","TYPE":"Sheriffs Department","VPARCEL":"33 24 21 0000 02900 0022","DATE_STAMP":1146182400000,"EASID":0,"created_us":"GISADMIN","created_da":1524009600000,"last_edite":"GISADMIN","last_edi_1":1524009600000}}]}