{"type":"FeatureCollection","features":[{"type":"Feature","id":0,"geometry":{"type":"Point","coordinates":[-82.701670292371546,28.296727774436064]},"properties":{"FID":0,"NAME":"PASCO COUNTY FIRE PROTECTION STATION VOL 35","STATUS":"Active","X":-82.701667080000007,"Y":28.29672261,"ADDRESS":"9506 CRABTREE DR","CITY":"PORT RICHEY, FL 34668","PHONE":"(727) 834-3205","TYPE":"Volunteer Fire Station","OWNER":"Pasco County","CALLOUT":"VOL 35","VPARCEL":"21 25 16 0040 00000 0020","DATE_STAMP":1350000000000,"EASID":0,"BATTALION":"1","OXYGEN":" ","created_us":"Pasco_BOCC","created_da":1720656000000,"last_edite":"Pasco_BOCC","last_edi_1":1720656000000,"URL":"https://www.pascocountyfl.net/4045/Station-35","GlobalID":"7aefdaa4-04df-4a70-ad87-45e6f7e807ab"}},{"type":"Feature","id":1,"geometry":{"type":"Point","coordinates":[-82.736221043301057,28.188519258859518]},"properties":{"FID":1,"NAME":"PASCO COUNTY FIRE PROTECTION STATION 12","STATUS":"Active","X":-82.736217819999993,"Y":28.188514120000001,"ADDRESS":"4713 MILE STRETCH DRIVE","CITY":"HOLIDAY, FL 34690","PHONE":"(727) 934-3596","TYPE":"Fire Rescue Station","OWNER":"Pasco County","CALLOUT":"12","VPARCEL":"31 26 16 0010 00600 0150","DATE_STAMP":1556755200000,"EASID":0,"BATTALION":"2","OXYGEN":" ","created_us":"Pasco_BOCC","created_da":1720656000000,"last_edite":"Pasco_BOCC","last_edi_1":1720656000000,"URL":"https://www.pascocountyfl.net/4024/Station-12","GlobalID":"06b05d8d-941c-4211-bab0-9fcdbb21af06"}},{"type":"Feature","id":2,"geometry":{"type":"Point","coordinates":[-82.36297479591066,28.243017642027883]},"properties":{"FID":2,"NAME":"PASCO COUNTY FIRE PROTECTION STATION 13","STATUS":"Active","X":-82.362971680000001,"Y":28.243012480000001,"ADDRESS":"5935 OLD PASCO RD","CITY":"WESLEY CHAPEL, FL 33544","PHONE":"(813) 973-0100","TYPE":"Fire Rescue Station","OWNER":"Pasco County","CALLOUT":"13","VPARCEL":"12 26 19 0020 00000 00B1","DATE_STAMP":1556841600000,"EASID":0,"BATTALION":"3","OXYGEN":" ","created_us":"Pasco_BOCC","created_da":1720656000000,"last_edite":"Pasco_BOCC","last_edi_1":1720656000000,"URL":"https://www.pascocountyfl.net/4025/Station-13","GlobalID":"083ced24-ec83-4118-84c1-9ba3b8370118"}},{"type":"Feature","id":3,"geometry":{"type":"Point","coordinates":[-82.636269946501102,28.270744788377716]},"properties":{"FID":3,"NAME":"PASCO COUNTY FIRE PROTECTION STATION 14","STATUS":"Active","X":-82.636183059999993,"Y":28.270814510000001,"ADDRESS":"7800 RIVER RIDGE BLVD","CITY":"NEW PORT RICHEY, FL 34654","PHONE":"(727) 834-3362","TYPE":"Fire Rescue Station","OWNER":"Pasco County","CALLOUT":"14","VPARCEL":"31 25 17 0000 00100 0078","DATE_STAMP":1350000000000,"EASID":0,"BATTALION":"2","OXYGEN":" ","created_us":"Pasco_BOCC","created_da":1720656000000,"last_edite":"Pasco_BOCC","last_edi_1":1720656000000,"URL":"https://www.pascocountyfl.net/4026/Station-14","GlobalID":"631b39ba-d4cf-4a7e-b923-05f962c7eb31"}},{"type":"Feature","id":4,"geometry":{"type":"Point","coordinates":[-82.2248935462529,28.230283065814771]},"properties":{"FID":4,"NAME":"PASCO COUNTY FIRE PROTECTION STATION 16","STATUS":"Active","X":-82.225131529999999,"Y":28.230303299999999,"ADDRESS":"35801 STATE ROAD 54","CITY":"ZEPHYRHILLS, FL 33541","PHONE":"(813) 782-4987","TYPE":"Fire Rescue Station","OWNER":"Pasco County","CALLOUT":"16","VPARCEL":"19 26 21 0010 05900 0040","DATE_STAMP":1350000000000,"EASID":0,"BATTALION":"3","OXYGEN":" ","created_us":"Pasco_BOCC","created_da":1720656000000,"last_edite":"Pasco_BOCC","last_edi_1":1720656000000,"URL":"https://www.pascocountyfl.net/4028/Station-16","GlobalID":"9bc94aac-f885-41d2-9f06-738db65d09db"}},{"type":"Feature","id":5,"geometry":{"type":"Point","coordinates":[-82.731241302592153,28.242055199516457]},"properties":{"FID":5,"NAME":"PASCO COUNTY FIRE PROTECTION STATION 19","STATUS":"Active","X":-82.731238079999997,"Y":28.24205005,"ADDRESS":"5025 CROSS BAYOU BLVD","CITY":"NEW PORT RICHEY, FL 34652","PHONE":"(727) 834-3256","TYPE":"Fire Rescue Station","OWNER":"Pasco County","CALLOUT":"19","VPARCEL":"08 26 16 0010 02900 0010","DATE_STAMP":1350000000000,"EASID":0,"BATTALION":"2","OXYGEN":" ","created_us":"Pasco_BOCC","created_da":1720656000000,"last_edite":"Pasco_BOCC","last_edi_1":1720656000000,"URL":"https://www.pascocountyfl.net/4031/Station-19","GlobalID":"38abbcba-bc1a-4fa8-8aa7-fc7a44f235ec"}},{"type":"Feature","id":6,"geometry":{"type":"Point","coordinates":[-82.64265521825304,28.333064917522186]},"properties":{"FID":6,"NAME":"PASCO COUNTY FIRE PROTECTION STATION 21","STATUS":"Active","X":-82.642456569999993,"Y":28.33421023,"ADDRESS":"10417 FRIERSON LAKE DR","CITY":"HUDSON, FL 34669","PHONE":"(727) 856-3259","TYPE":"Fire Rescue Station","OWNER":"Pasco County","CALLOUT":"21","VPARCEL":"06 25 17 0070 00000 5580","DATE_STAMP":1350000000000,"EASID":0,"BATTALION":"1","OXYGEN":" ","created_us":"Pasco_BOCC","created_da":1720656000000,"last_edite":"Pasco_BOCC","last_edi_1":1720656000000,"URL":"https://www.pascocountyfl.net/4205/Station-21","GlobalID":"3b85b860-a179-47ad-bee3-e21476d9aab1"}},{"type":"Feature","id":7,"geometry":{"type":"Point","coordinates":[-82.496201885742948,28.302457299584297]},"properties":{"FID":7,"NAME":"PASCO COUNTY FIRE PROTECTION STATION 22","STATUS":"Active","X":-82.495811560000007,"Y":28.30258186,"ADDRESS":"9930 LAND O' LAKES BLVD","CITY":"LAND O' LAKES, FL 34639","PHONE":"(813) 235-6046","TYPE":"Fire Rescue Station","OWNER":"Pasco County","CALLOUT":"22","VPARCEL":"22 25 18 0000 00300 0010","DATE_STAMP":1350000000000,"EASID":0,"BATTALION":"5","OXYGEN":" ","created_us":"Pasco_BOCC","created_da":1720656000000,"last_edite":"Pasco_BOCC","last_edi_1":1720656000000,"URL":"https://www.pascocountyfl.net/4033/Station-22","GlobalID":"9a109fa4-1b62-4ce7-bb30-27deef9ea5a9"}},{"type":"Feature","id":8,"geometry":{"type":"Point","coordinates":[-82.464011233643632,28.190690471096211]},"properties":{"FID":8,"NAME":"PASCO COUNTY FIRE PROTECTION STATION 23","STATUS":"Active","X":-82.464173740000007,"Y":28.19066686,"ADDRESS":"21300 STATE RD 54","CITY":"LUTZ, FL 33549","PHONE":"(813) 909-2837","TYPE":"Fire Rescue Station","OWNER":"Pasco County","CALLOUT":"23","VPARCEL":"25 26 18 0000 06100 0000","DATE_STAMP":1350000000000,"EASID":0,"BATTALION":"5","OXYGEN":" ","created_us":"Pasco_BOCC","created_da":1720656000000,"last_edite":"Pasco_BOCC","last_edi_1":1720656000000,"URL":"https://www.pascocountyfl.net/4034/Station-23","GlobalID":"5ddde2f6-00b3-467c-814f-9e9129fa5274"}},{"type":"Feature","id":9,"geometry":{"type":"Point","coordinates":[-82.187228661423461,28.366417103662517]},"properties":{"FID":9,"NAME":"PASCO COUNTY FIRE PROTECTION STATION 24","STATUS":"Active","X":-82.187074469999999,"Y":28.366426440000001,"ADDRESS":"14317 4TH ST","CITY":"DADE CITY, FL 33523","PHONE":"(352) 521-4346","TYPE":"Fire Rescue Station","OWNER":"Pasco County","CALLOUT":"24","VPARCEL":"26 24 21 0000 01900 0000","DATE_STAMP":1350000000000,"EASID":0,"BATTALION":"4","OXYGEN":" ","created_us":"Pasco_BOCC","created_da":1720656000000,"last_edite":"Pasco_BOCC","last_edi_1":1720656000000,"URL":"https://www.pascocountyfl.net/4035/Station-24","GlobalID":"2c86eeab-e568-4293-9516-aa62e6ce3417"}},{"type":"Feature","id":10,"geometry":{"type":"Point","coordinates":[-82.577325420675123,28.188889506506207]},"properties":{"FID":10,"NAME":"PASCO COUNTY FIRE PROTECTION STATION FRS","STATUS":"Active","X":-82.577237920000002,"Y":28.188837450000001,"ADDRESS":"2036 CHESAPEAKE DR","CITY":"ODESSA, FL  33556","PHONE":"(823) 926-9747","TYPE":"Fire Rescue Supply","OWNER":"Pasco County","CALLOUT":"FRS","VPARCEL":"20 26 16 0590 00000 00B0","DATE_STAMP":1350000000000,"EASID":0,"BATTALION":"2","OXYGEN":" ","created_us":"Pasco_BOCC","created_da":1720656000000,"last_edite":"Pasco_BOCC","last_edi_1":1720656000000,"URL":" ","GlobalID":"91d125e4-f5ff-4c25-8e2b-ec904e00f647"}},{"type":"Feature","id":11,"geometry":{"type":"Point","coordinates":[-82.456810772212407,28.226788004583888]},"properties":{"FID":11,"NAME":"PASCO COUNTY FIRE PROTECTION STATION 28","STATUS":"Active","X":-82.456866390000002,"Y":28.226906809999999,"ADDRESS":"21709 HALE RD","CITY":"LAND O' LAKES, FL 34639","PHONE":"(813) 996-1372","TYPE":"Fire Rescue Station","OWNER":"Pasco County","CALLOUT":"28","VPARCEL":"13 26 18 0020 00000 0153","DATE_STAMP":1350000000000,"EASID":0,"BATTALION":"5","OXYGEN":" ","created_us":"Pasco_BOCC","created_da":1720656000000,"last_edite":"Pasco_BOCC","last_edi_1":1720656000000,"URL":"https://www.pascocountyfl.net/4039/Station-28","GlobalID":"1cb5bc72-f6b0-42c7-b3db-9ff5ec8ae52e"}},{"type":"Feature","id":12,"geometry":{"type":"Point","coordinates":[-82.715779428056649,28.250745298945656]},"properties":{"FID":12,"NAME":"NEW PORT RICHEY FIRE STATION 1","STATUS":"Active","X":-82.715756440000007,"Y":28.25068581,"ADDRESS":"6333 MADISON ST","CITY":"NEW PORT RICHEY, FL 34653","PHONE":"(727) 841-4500","TYPE":"Municipal Fire Station","OWNER":"Other","CALLOUT":"NPR #1","VPARCEL":"05 26 16 0030 08000 0000","DATE_STAMP":1350000000000,"EASID":0,"BATTALION":"2","OXYGEN":" ","created_us":"Pasco_BOCC","created_da":1720656000000,"last_edite":"Pasco_BOCC","last_edi_1":1720656000000,"URL":"https://www.cityofnewportrichey.org/city-departments/fire-services/firefighting-division/","GlobalID":"545924f4-420b-4414-b58c-a63192359293"}},{"type":"Feature","id":13,"geometry":{"type":"Point","coordinates":[-82.713161283669493,28.236427509016586]},"properties":{"FID":13,"NAME":"NEW PORT RICHEY FIRE STATION 2","STATUS":"Active","X":-82.713127659999998,"Y":28.236390050000001,"ADDRESS":"6121 HIGH STREET","CITY":"NEW PORT RICHEY, FL 34654","PHONE":"(727) 841-4500","TYPE":"Municipal Fire Station","OWNER":"Other","CALLOUT":"NPR #2","VPARCEL":"09 26 16 0150 00D00 0010","DATE_STAMP":1350000000000,"EASID":0,"BATTALION":"2","OXYGEN":" ","created_us":"Pasco_BOCC","created_da":1720656000000,"last_edite":"Pasco_BOCC","last_edi_1":1720656000000,"URL":"https://www.cityofnewportrichey.org/city-departments/fire-services/firefighting-division/","GlobalID":"31ea781b-5482-4d24-b92f-8ce8b818cdf2"}},{"type":"Feature","id":14,"geometry":{"type":"Point","coordinates":[-82.72156324358987,28.271089790536895]},"properties":{"FID":14,"NAME":"PORT RICHEY FIRE STATION PRFD","STATUS":"Active","X":-82.721533930000007,"Y":28.271054209999999,"ADDRESS":"7824 GRAND BLVD","CITY":"PORT RICHEY, FL 34668","PHONE":"(727) 861-1910","TYPE":"Municipal Fire Station","OWNER":"Other","CALLOUT":"PRFD","VPARCEL":"32 25 16 0280 01100 0260","DATE_STAMP":1350000000000,"EASID":0,"BATTALION":"1","OXYGEN":" ","created_us":"Pasco_BOCC","created_da":1720656000000,"last_edite":"Pasco_BOCC","last_edi_1":1720656000000,"URL":"https://cityofportrichey.com/fire-department/","GlobalID":"cd082549-415e-4145-aff5-f408d240b1cf"}},{"type":"Feature","id":15,"geometry":{"type":"Point","coordinates":[-82.349823002010368,28.176735951664444]},"properties":{"FID":15,"NAME":"PASCO COUNTY FIRE PROTECTION STATION 26","STATUS":"Active","X":-82.349267479999995,"Y":28.176879769999999,"ADDRESS":"28229 ARONWOOD BLVD","CITY":"WESLEY CHAPEL, FL 33543","PHONE":"(813) 994-9593","TYPE":"Fire Rescue Station","OWNER":"Pasco County","CALLOUT":"26","VPARCEL":"31 26 20 0000 91100 0000","DATE_STAMP":1350000000000,"EASID":0,"BATTALION":"3","OXYGEN":" ","created_us":"Pasco_BOCC","created_da":1720656000000,"last_edite":"Pasco_BOCC","last_edi_1":1720656000000,"URL":"https://www.pascocountyfl.net/4037/Station-26","GlobalID":"4f791de3-bdf3-46b5-a22c-d37849f5d6ba"}},{"type":"Feature","id":16,"geometry":{"type":"Point","coordinates":[-82.182664431059337,28.303245494379468]},"properties":{"FID":16,"NAME":"PASCO COUNTY FIRE PROTECTION STATION 32","STATUS":"Active","X":-82.183026319999996,"Y":28.303687490000002,"ADDRESS":"38223 CENTENNIAL RD","CITY":"DADE CITY, FL 33523","PHONE":"(352) 521-9704","TYPE":"Fire Rescue Station","OWNER":"Pasco County","CALLOUT":"32","VPARCEL":"14 25 21 0000 00900 0030","DATE_STAMP":1350000000000,"EASID":0,"BATTALION":"4","OXYGEN":" ","created_us":"Pasco_BOCC","created_da":1720656000000,"last_edite":"Pasco_BOCC","last_edi_1":1720656000000,"URL":"https://www.pascocountyfl.net/4042/Station-32","GlobalID":"3910e365-2186-489a-851a-885d034babb9"}},{"type":"Feature","id":17,"geometry":{"type":"Point","coordinates":[-82.333109115818985,28.41000412202682]},"properties":{"FID":17,"NAME":"TRAVELERS REST VOL. FIRE STATION VOL 33","STATUS":"Active","X":-82.333106009999995,"Y":28.40999892,"ADDRESS":"29129 JOHNSTON RD","CITY":"DADE CITY, FL 33523","PHONE":"(352) 588-0846","TYPE":"Volunteer Fire Station","OWNER":"Other","CALLOUT":"VOL 33","VPARCEL":"08 24 20 0000 01000 0010","DATE_STAMP":1350000000000,"EASID":0,"BATTALION":"4","OXYGEN":" ","created_us":"Pasco_BOCC","created_da":1720656000000,"last_edite":"Pasco_BOCC","last_edi_1":1720656000000,"URL":"https://www.pascocountyfl.net/4043/Station-33","GlobalID":"6d6c2526-b30f-457d-a1e9-b11ccb42952f"}},{"type":"Feature","id":18,"geometry":{"type":"Point","coordinates":[-82.244598042602732,28.414246155440306]},"properties":{"FID":18,"NAME":"PASCO COUNTY FIRE PROTECTION STATION 36","STATUS":"Active","X":-82.244695609999994,"Y":28.413972179999998,"ADDRESS":"34516 BLANTON RD","CITY":"DADE CITY, FL 33523","PHONE":"(352) 518-1145","TYPE":"Fire Rescue Station","OWNER":"Pasco County","CALLOUT":"36","VPARCEL":"07 24 21 0000 00800 0010","DATE_STAMP":1350000000000,"EASID":0,"BATTALION":"4","OXYGEN":" ","created_us":"Pasco_BOCC","created_da":1720656000000,"last_edite":"Pasco_BOCC","last_edi_1":1720656000000,"URL":"https://www.pascocountyfl.net/4046/Station-36","GlobalID":"e9ef9741-0fd6-44e7-9cff-ac965e2b2c47"}},{"type":"Feature","id":19,"geometry":{"type":"Point","coordinates":[-82.517946112946561,28.195495291275439]},"properties":{"FID":19,"NAME":"PASCO COUNTY FIRE PROTECTION STATION 37","STATUS":"Active","X":-82.517903110000006,"Y":28.19560967,"ADDRESS":"18015 STATE ROAD 54","CITY":"LUTZ, FL 33558","PHONE":"(813) 926-1984","TYPE":"Fire Rescue Station","OWNER":"Pasco County","CALLOUT":"37","VPARCEL":"28 26 18 0000 91100 00F0","DATE_STAMP":1350000000000,"EASID":0,"BATTALION":"5","OXYGEN":" ","created_us":"Pasco_BOCC","created_da":1720656000000,"last_edite":"Pasco_BOCC","last_edi_1":1720656000000,"URL":"https://www.pascocountyfl.net/4047/Station-37","GlobalID":"bc772d74-2b1b-4af5-863e-f938371ee9fa"}},{"type":"Feature","id":20,"geometry":{"type":"Point","coordinates":[-82.552525861493464,28.398646954207781]},"properties":{"FID":20,"NAME":"PASCO COUNTY FIRE PROTECTION STATION 20","STATUS":"Active","X":-82.552997079999997,"Y":28.398823190000002,"ADDRESS":"15900 LITTLE RANCH RD","CITY":"BROOKSVILLE, FL 34610","PHONE":"(727) 856-5519","TYPE":"Fire Rescue Station","OWNER":"Pasco County","CALLOUT":"20","VPARCEL":"13 24 17 0040 00000 2540","DATE_STAMP":1350000000000,"EASID":0,"BATTALION":"1","OXYGEN":" ","created_us":"Pasco_BOCC","created_da":1720656000000,"last_edite":"Pasco_BOCC","last_edi_1":1720656000000,"URL":"https://www.pascocountyfl.net/4032/Station-20","GlobalID":"e05daece-b595-4a42-9aaa-d567b6cf93a0"}},{"type":"Feature","id":21,"geometry":{"type":"Point","coordinates":[-82.181027397879404,28.234730963748422]},"properties":{"FID":21,"NAME":"PASCO COUNTY FIRE PROTECTION STATION 25","STATUS":"Active","X":-82.181118029999993,"Y":28.234649749999999,"ADDRESS":"38410 6TH AVE","CITY":"ZEPHYRHILLS, FL 33540","PHONE":"(813) 780-0035","TYPE":"Fire Rescue Station","OWNER":"Pasco County","CALLOUT":"25","VPARCEL":"11 26 21 0010 15300 0200","DATE_STAMP":1350000000000,"EASID":0,"BATTALION":"3","OXYGEN":" ","created_us":"Pasco_BOCC","created_da":1720656000000,"last_edite":"Pasco_BOCC","last_edi_1":1720656000000,"URL":"https://www.ci.zephyrhills.fl.us/231/Fire-Rescue-Station-2","GlobalID":"a89287b9-64fa-48bf-a51e-a9a8ce755058"}},{"type":"Feature","id":22,"geometry":{"type":"Point","coordinates":[-82.184595820598275,28.258127315665568]},"properties":{"FID":22,"NAME":"PASCO COUNTY FIRE PROTECTION STATION 29","STATUS":"Active","X":-82.184592339999995,"Y":28.257880409999999,"ADDRESS":"6907 DAIRY RD","CITY":"ZEPHYRHILLS, FL 33542-4312","PHONE":" ","TYPE":"Fire Rescue Station","OWNER":"Pasco County","CALLOUT":"29","VPARCEL":"02 26 21 0010 01000 0000","DATE_STAMP":1350000000000,"EASID":0,"BATTALION":"3","OXYGEN":" ","created_us":"Pasco_BOCC","created_da":1720656000000,"last_edite":"Pasco_BOCC","last_edi_1":1720656000000,"URL":"https://www.ci.zephyrhills.fl.us/228/Fire-Rescue-Station-1","GlobalID":"e3323abc-a701-442b-9318-ae36720f93bd"}},{"type":"Feature","id":23,"geometry":{"type":"Point","coordinates":[-82.686702589158685,28.330843324382272]},"properties":{"FID":23,"NAME":"3","STATUS":"Proposed","X":-82.686699379999993,"Y":28.330838150000002,"ADDRESS":"7724 STATE ROAD 52","CITY":"Hudson, FL  34667","PHONE":" ","TYPE":"Proposed Fire Rescue Sta","OWNER":"Pasco County","CALLOUT":"3","VPARCEL":"10 25 16 0050 00300 0000","DATE_STAMP":1350000000000,"EASID":0,"BATTALION":" ","OXYGEN":" ","created_us":"Pasco_BOCC","created_da":1720656000000,"last_edite":"Pasco_BOCC","last_edi_1":1720656000000,"URL":" ","GlobalID":"2f7878e2-c4a4-40b2-8440-98112b3573aa"}},{"type":"Feature","id":24,"geometry":{"type":"Point","coordinates":[-82.623413239290173,28.433155663189485]},"properties":{"FID":24,"NAME":"PASCO COUNTY FIRE PROTECTION STATION 39","STATUS":"Active","X":-82.623287450000007,"Y":28.43324557,"ADDRESS":"11630 COUNTY LINE RD","CITY":"HUDSON, FL 34667","PHONE":"(727) 861-3005","TYPE":"Fire Rescue Station","OWNER":"Pasco County","CALLOUT":"39","VPARCEL":"05 24 17 0000 49900 0030","DATE_STAMP":1350000000000,"EASID":0,"BATTALION":"1","OXYGEN":" ","created_us":"Pasco_BOCC","created_da":1720656000000,"last_edite":"Pasco_BOCC","last_edi_1":1720656000000,"URL":"https://www.pascocountyfl.net/4329/Station-39","GlobalID":"6a0af3c9-889f-4fbd-a87e-c268b9278a0d"}},{"type":"Feature","id":25,"geometry":{"type":"Point","coordinates":[-82.695138510786677,28.202466856197681]},"properties":{"FID":25,"NAME":"PASCO COUNTY FIRE PROTECTION STATION 17","STATUS":"Active","X":-82.695025389999998,"Y":28.202468,"ADDRESS":"2951 SEVEN SPRINGS BLVD","CITY":"NEW PORT RICHEY, FL 34655","PHONE":"(727) 834-3265","TYPE":"Fire Rescue Station","OWNER":"Pasco County","CALLOUT":"17","VPARCEL":"22 26 16 0060 00000 0010","DATE_STAMP":1350000000000,"EASID":0,"BATTALION":"2","OXYGEN":" ","created_us":"Pasco_BOCC","created_da":1720656000000,"last_edite":"Pasco_BOCC","last_edi_1":1720656000000,"URL":"https://www.pascocountyfl.net/4029/Station-17","GlobalID":"e1f93fdf-040b-4db4-8d3a-14bd8cec38db"}},{"type":"Feature","id":26,"geometry":{"type":"Point","coordinates":[-82.159262067453142,28.181934959860808]},"properties":{"FID":26,"NAME":"PASCO COUNTY FIRE PROTECTION STATION 18","STATUS":"Active","X":-82.159220199999993,"Y":28.181920309999999,"ADDRESS":"39731 BAY AVE","CITY":"CRYSTAL SPRINGS, FL 33540","PHONE":"(813) 788-3418","TYPE":"Fire Rescue Station","OWNER":"Pasco County","CALLOUT":"18","VPARCEL":"36 26 21 0020 00000 4170","DATE_STAMP":1350000000000,"EASID":0,"BATTALION":"3","OXYGEN":" ","created_us":"Pasco_BOCC","created_da":1720656000000,"last_edite":"Pasco_BOCC","last_edi_1":1720656000000,"URL":"https://www.pascocountyfl.net/4030/Station-18","GlobalID":"1f7a51c6-f024-4df0-803a-6c69bf374ca2"}},{"type":"Feature","id":27,"geometry":{"type":"Point","coordinates":[-82.703873972951214,28.292602866743927]},"properties":{"FID":27,"NAME":"PASCO COUNTY FIRE PROTECTION STATION 11","STATUS":"Active","X":-82.703870760000001,"Y":28.292597700000002,"ADDRESS":"6700 RIELLY CT","CITY":"PORT RICHEY, FL 34668","PHONE":"(727) 834-3254","TYPE":"Fire Rescue Station","OWNER":"Pasco County","CALLOUT":"11","VPARCEL":"21 25 16 0010 03700 0080","DATE_STAMP":1350000000000,"EASID":0,"BATTALION":"1","OXYGEN":" ","created_us":"Pasco_BOCC","created_da":1720656000000,"last_edite":"Pasco_BOCC","last_edi_1":1720656000000,"URL":"https://www.pascocountyfl.net/4023/Station-11","GlobalID":"8c45872b-900b-42e9-82f5-73dcfa1479bc"}},{"type":"Feature","id":28,"geometry":{"type":"Point","coordinates":[-82.181789586058642,28.46361363347102]},"properties":{"FID":28,"NAME":"PASCO COUNTY FIRE PROTECTION STATION 34","STATUS":"Active","X":-82.181674560000005,"Y":28.463541240000001,"ADDRESS":"38316 STATE ROAD 575","CITY":"LACOOCHEE, FL 33537","PHONE":"(352) 583-5487","TYPE":"Fire Rescue Station","OWNER":"Pasco County","CALLOUT":"34","VPARCEL":"26 23 21 0030 00B00 0040","DATE_STAMP":1350000000000,"EASID":0,"BATTALION":"4","OXYGEN":" ","created_us":"Pasco_BOCC","created_da":1720656000000,"last_edite":"Pasco_BOCC","last_edi_1":1720656000000,"URL":"https://www.pascocountyfl.net/4044/Station-34","GlobalID":"5f1baa72-721a-4c38-a9a2-a362cd86fb7c"}},{"type":"Feature","id":29,"geometry":{"type":"Point","coordinates":[-82.683160019055379,28.370809839356138]},"properties":{"FID":29,"NAME":"PASCO COUNTY FIRE PROTECTION STATION 10","STATUS":"Active","X":-82.68315681,"Y":28.370804660000001,"ADDRESS":"7918 RHODES ROAD","CITY":"HUDSON, FL 34667","PHONE":"(727) 861-3003","TYPE":"Fire Rescue Station","OWNER":"Pasco County","CALLOUT":"10","VPARCEL":"27 24 16 0170 00100 0012","DATE_STAMP":1350000000000,"EASID":0,"BATTALION":"1","OXYGEN":" ","created_us":"Pasco_BOCC","created_da":1720656000000,"last_edite":"Pasco_BOCC","last_edi_1":1720656000000,"URL":"https://www.pascocountyfl.net/4022/Station-10","GlobalID":"28b1eb41-cb86-4cb3-84fa-a7a9257c2683"}},{"type":"Feature","id":30,"geometry":{"type":"Point","coordinates":[-82.623976627602076,28.186893616142058]},"properties":{"FID":30,"NAME":"PASCO COUNTY FIRE PROTECTION STATION 15","STATUS":"Active","X":-82.623973590000006,"Y":28.186913310000001,"ADDRESS":"11538 TRINITY BLVD","CITY":"ODESSA, FL 33555","PHONE":"(813) 920-2732","TYPE":"Fire Rescue Station","OWNER":"Pasco County","CALLOUT":"15","VPARCEL":"26 26 17 0020 00300 0100","DATE_STAMP":1350000000000,"EASID":0,"BATTALION":"2","OXYGEN":" ","created_us":"Pasco_BOCC","created_da":1720656000000,"last_edite":"Pasco_BOCC","last_edi_1":1720656000000,"URL":"https://www.pascocountyfl.net/4027/Station-15","GlobalID":"4e098d1e-461c-4ba5-b57b-8f697a31c7dd"}},{"type":"Feature","id":31,"geometry":{"type":"Point","coordinates":[-82.274658246580984,28.335593130497646]},"properties":{"FID":31,"NAME":"PASCO COUNTY FIRE PROTECTION STATION 27","STATUS":"Active","X":-82.274709040000005,"Y":28.33555441,"ADDRESS":"12221 CURLEY ST","CITY":"SAN ANTONIO, FL 33576","PHONE":"(352) 588-3665","TYPE":"Fire Rescue Station","OWNER":"Pasco County","CALLOUT":"27","VPARCEL":"02 25 20 0080 01300 0000","DATE_STAMP":1361232000000,"EASID":0,"BATTALION":"4","OXYGEN":" ","created_us":"Pasco_BOCC","created_da":1720656000000,"last_edite":"Pasco_BOCC","last_edi_1":1720656000000,"URL":"https://www.pascocountyfl.net/4038/Station-27","GlobalID":"9915969d-0eca-4993-a325-55eedb424891"}},{"type":"Feature","id":32,"geometry":{"type":"Point","coordinates":[-82.459658750564984,28.217896034626726]},"properties":{"FID":32,"NAME":"PASCO COUNTY FIRE PROTECTION SERVICES FR HQ","STATUS":"Active","X":-82.460814069999998,"Y":28.21743932,"ADDRESS":"4111 LAND O LAKES BLVD #208","CITY":"LAND O LAKES, FL 34639","PHONE":"(813) 929-2750","TYPE":"FR Headquarters","OWNER":"Pasco County","CALLOUT":"FR HQ","VPARCEL":"13 26 18 0000 04700 0010","DATE_STAMP":1350000000000,"EASID":0,"BATTALION":"5","OXYGEN":" ","created_us":"Pasco_BOCC","created_da":1720656000000,"last_edite":"Pasco_BOCC","last_edi_1":1720656000000,"URL":" ","GlobalID":"ebcbf84c-4bfa-4f7e-98d4-e080c7833a52"}},{"type":"Feature","id":33,"geometry":{"type":"Point","coordinates":[-82.553084503107399,28.398754240425774]},"properties":{"FID":33,"NAME":"PASCO COUNTY FIRE PROTECTION STATION TRAINING","STATUS":"Training","X":-82.552451570000002,"Y":28.398830390000001,"ADDRESS":"15910 LITTLE RANCH RD","CITY":"BROOKSVILLE, FL 34610","PHONE":"(727) 861-3007","TYPE":"Fire Training Center","OWNER":"Pasco County","CALLOUT":"TRAINING","VPARCEL":"13 24 17 0040 00000 2540","DATE_STAMP":1350000000000,"EASID":0,"BATTALION":"1","OXYGEN":" ","created_us":"Pasco_BOCC","created_da":1720656000000,"last_edite":"Pasco_BOCC","last_edi_1":1720656000000,"URL":" ","GlobalID":"31ba88f4-bbbb-4fd0-99f8-20b21ed70e30"}},{"type":"Feature","id":34,"geometry":{"type":"Point","coordinates":[-82.669779916528995,28.266273552854326]},"properties":{"FID":34,"NAME":"911 CALL CENTER DISPATCH","STATUS":"Active","X":-82.669776720000002,"Y":28.26626839,"ADDRESS":"8750 GOVERNMENT DR","CITY":"NEW PORT RICHEY, FL 34654","PHONE":"(727) 847-8102","TYPE":"Dispatch","OWNER":"Pasco County","CALLOUT":"DISPATCH","VPARCEL":"35 25 16 0030 01000 0000","DATE_STAMP":1350000000000,"EASID":0,"BATTALION":"2","OXYGEN":" ","created_us":"Pasco_BOCC","created_da":1720656000000,"last_edite":"Pasco_BOCC","last_edi_1":1720656000000,"URL":" ","GlobalID":"636ece8c-62e7-43a6-96c5-ac6763b6bb52"}},{"type":"Feature","id":35,"geometry":{"type":"Point","coordinates":[-82.684758231540286,28.259475030373022]},"properties":{"FID":35,"NAME":"PASCO COUNTY FIRE PROTECTION STATION 30","STATUS":"Active","X":-82.684755030000005,"Y":28.25946987,"ADDRESS":"7951 MASSACHUSETTS AVE","CITY":"NEW PORT RICHEY, FL 34653","PHONE":"(727) 834-3488","TYPE":"Fire Rescue Station","OWNER":"Pasco County","CALLOUT":"30","VPARCEL":"34 25 16 0010 49900 0000","DATE_STAMP":1412812800000,"EASID":0,"BATTALION":"2","OXYGEN":" ","created_us":"Pasco_BOCC","created_da":1720656000000,"last_edite":"Pasco_BOCC","last_edi_1":1720656000000,"URL":"https://www.pascocountyfl.net/4041/Station-30","GlobalID":"74a5dedc-6b49-49d7-8b8e-7a8eb7315bec"}},{"type":"Feature","id":36,"geometry":{"type":"Point","coordinates":[-82.478326149105825,28.389172193319734]},"properties":{"FID":36,"NAME":"41","STATUS":"Proposed","X":-82.478323000000003,"Y":28.389167,"ADDRESS":"US HWY 41 AND FONTAINE AVE","CITY":" ","PHONE":" ","TYPE":"Proposed Fire Rescue Sta","OWNER":"Pasco County","CALLOUT":"41","VPARCEL":" ","DATE_STAMP":1350000000000,"EASID":0,"BATTALION":" ","OXYGEN":" ","created_us":"Pasco_BOCC","created_da":1720656000000,"last_edite":"Pasco_BOCC","last_edi_1":1720656000000,"URL":" ","GlobalID":"9ed1e12f-1076-4eb5-96c1-1f9867fe6fa3"}},{"type":"Feature","id":37,"geometry":{"type":"Point","coordinates":[-82.55868689937742,28.32305830892777]},"properties":{"FID":37,"NAME":"PASCO COUNTY FIRE PROTECTION STATION 9","STATUS":"Active","X":-82.558661839999999,"Y":28.32299592,"ADDRESS":"11425 SILVER PALM BLVD","CITY":"LAND O LAKES, FL 34638","PHONE":" ","TYPE":"Fire Rescue Station","OWNER":"Pasco County","CALLOUT":"9","VPARCEL":"12 25 17 0000 00100 0071","DATE_STAMP":1570579200000,"EASID":0,"BATTALION":" ","OXYGEN":" ","created_us":"Pasco_BOCC","created_da":1720656000000,"last_edite":"Pasco_BOCC","last_edi_1":1720656000000,"URL":" ","GlobalID":"d51b2b1b-ce7c-4381-a296-dcb4bdddb175"}},{"type":"Feature","id":38,"geometry":{"type":"Point","coordinates":[-82.525575159701532,28.241170155907259]},"properties":{"FID":38,"NAME":"7","STATUS":"Proposed","X":-82.525571999999997,"Y":28.241164999999999,"ADDRESS":"NORTH SUNLAKE BLVD BETWEEN SR 54 & SR 52","CITY":" ","PHONE":" ","TYPE":"Proposed Fire Rescue Sta","OWNER":"Pasco County","CALLOUT":"7","VPARCEL":" ","DATE_STAMP":1350000000000,"EASID":0,"BATTALION":" ","OXYGEN":" ","created_us":"Pasco_BOCC","created_da":1720656000000,"last_edite":"Pasco_BOCC","last_edi_1":1720656000000,"URL":" ","GlobalID":"e9955ec8-8de5-40d3-ab62-6528190440f6"}},{"type":"Feature","id":39,"geometry":{"type":"Point","coordinates":[-82.442901135283904,28.27338616612634]},"properties":{"FID":39,"NAME":"43","STATUS":"Proposed","X":-82.442898,"Y":28.273381000000001,"ADDRESS":"EHREN CUTOFF NORTH OF CALIENTE BLVD","CITY":" ","PHONE":" ","TYPE":"Proposed Fire Rescue Sta","OWNER":"Pasco County","CALLOUT":"43","VPARCEL":" ","DATE_STAMP":1350000000000,"EASID":0,"BATTALION":" ","OXYGEN":" ","created_us":"Pasco_BOCC","created_da":1720656000000,"last_edite":"Pasco_BOCC","last_edi_1":1720656000000,"URL":" ","GlobalID":"9fb47fdd-9dea-4e85-afdd-5f0253e5c98c"}},{"type":"Feature","id":40,"geometry":{"type":"Point","coordinates":[-82.286773023520652,28.226959621597235]},"properties":{"FID":40,"NAME":"2","STATUS":"Proposed","X":-82.286769939999999,"Y":28.226954460000002,"ADDRESS":"5510 WESLEY CHAPEL LP","CITY":" ","PHONE":" ","TYPE":"Proposed Fire Rescue Sta","OWNER":"Pasco County","CALLOUT":"2","VPARCEL":"14 26 20 0000 00200 0010","DATE_STAMP":1350000000000,"EASID":0,"BATTALION":" ","OXYGEN":" ","created_us":"Pasco_BOCC","created_da":1720656000000,"last_edite":"Pasco_BOCC","last_edi_1":1720656000000,"URL":" ","GlobalID":"945509b9-f360-44f9-8791-f2897bb2d3d6"}},{"type":"Feature","id":41,"geometry":{"type":"Point","coordinates":[-82.280008422868661,28.26717356628869]},"properties":{"FID":41,"NAME":"PASCO COUNTY FIRE PROTECTION STATION 38","STATUS":"Active","X":-82.280005340000002,"Y":28.267168399999999,"ADDRESS":"7541 PARAMOUNT DR","CITY":"WESLEY CHAPEL, FL 33545","PHONE":" ","TYPE":"Fire Rescue Station","OWNER":"Pasco County","CALLOUT":"38","VPARCEL":"35 25 20 0000 49900 00FS","DATE_STAMP":1551139200000,"EASID":0,"BATTALION":"4","OXYGEN":" ","created_us":"Pasco_BOCC","created_da":1720656000000,"last_edite":"Pasco_BOCC","last_edi_1":1720656000000,"URL":"https://www.pascocountyfl.net/4048/Station-38","GlobalID":"5725fc99-321a-4691-9f26-6724fefacd18"}},{"type":"Feature","id":42,"geometry":{"type":"Point","coordinates":[-82.400971124943965,28.326182178573195]},"properties":{"FID":42,"NAME":"8","STATUS":"Proposed","X":-82.400968000000006,"Y":28.326177000000001,"ADDRESS":"STATE ROAD 52 EAST OF EHREN CUTOFF","CITY":" ","PHONE":" ","TYPE":"Proposed Fire Rescue Sta","OWNER":" ","CALLOUT":"8","VPARCEL":" ","DATE_STAMP":-2209161600000,"EASID":0,"BATTALION":" ","OXYGEN":" ","created_us":"Pasco_BOCC","created_da":1720656000000,"last_edite":"Pasco_BOCC","last_edi_1":1720656000000,"URL":" ","GlobalID":"9d94bb29-e67e-49a3-a0f6-71b25e20e0d2"}},{"type":"Feature","id":43,"geometry":{"type":"Point","coordinates":[-82.628761188654281,28.22670814956469]},"properties":{"FID":43,"NAME":"46","STATUS":"Proposed","X":-82.628758000000005,"Y":28.226703000000001,"ADDRESS":"STARKEY BLVD NEAR ALICO PASS","CITY":" ","PHONE":" ","TYPE":"Proposed Fire Rescue Sta","OWNER":" ","CALLOUT":"46","VPARCEL":" ","DATE_STAMP":-2209161600000,"EASID":0,"BATTALION":" ","OXYGEN":" ","created_us":"Pasco_BOCC","created_da":1720656000000,"last_edite":"Pasco_BOCC","last_edi_1":1720656000000,"URL":" ","GlobalID":"0918d2d5-6703-4c4b-9e39-8806653bcd38"}},{"type":"Feature","id":44,"geometry":{"type":"Point","coordinates":[-82.240093074097871,28.196110150897422]},"properties":{"FID":44,"NAME":"48","STATUS":"Proposed","X":-82.240089999999995,"Y":28.196104999999999,"ADDRESS":" ","CITY":" ","PHONE":" ","TYPE":"Proposed Fire Rescue Sta","OWNER":" ","CALLOUT":"48","VPARCEL":" ","DATE_STAMP":-2209161600000,"EASID":0,"BATTALION":" ","OXYGEN":" ","created_us":"Pasco_BOCC","created_da":1720656000000,"last_edite":"Pasco_BOCC","last_edi_1":1720656000000,"URL":" ","GlobalID":"a5fe8241-4ece-43fa-b309-2e6ae9a018d9"}},{"type":"Feature","id":45,"geometry":{"type":"Point","coordinates":[-82.578443578862093,28.190973793953322]},"properties":{"FID":45,"NAME":"PASCO COUNTY FIRE PROTECTION STATION 4","STATUS":"Proposed","X":-82.578440409999999,"Y":28.190968649999999,"ADDRESS":"14325 BLACK LAKE ROAD","CITY":"ODESSA, FL 33556","PHONE":" ","TYPE":"Proposed Fire Rescue Sta","OWNER":"Pasco County","CALLOUT":"4","VPARCEL":" ","DATE_STAMP":-2209161600000,"EASID":0,"BATTALION":" ","OXYGEN":" ","created_us":"Pasco_BOCC","created_da":1720656000000,"last_edite":"Pasco_BOCC","last_edi_1":1720656000000,"URL":" ","GlobalID":"1500e03e-6c82-407e-af95-1693f950e8f8"}}]}